[
    {
        "city": "Orlando, Florida, United States",
        "lat": 28.538335,
        "lng": -81.379236
    },{
        "city": "New York City, New York, United States",
        "lat": 40.712784,
        "lng": -74.005941
    },{
        "city": "Paris, France",
        "lat": 48.856614,
        "lng": 2.352222
    },{
        "city": "Playa del Carmen, Yucatan Peninsula, Mexico",
        "lat": 20.629559,
        "lng": -87.073885
    },{
        "city": "Chicago, Illinois, United States",
        "lat": 41.878114,
        "lng": -87.629798
    },{
        "city": "London, England, United Kingdom",
        "lat": 51.507351,
        "lng": -0.127758
    },{
        "city": "Rome, Italy",
        "lat": 41.902783,
        "lng": 12.496366
    },{
        "city": "Cancun, Yucatan Peninsula, Mexico",
        "lat": 21.161908,
        "lng": -86.851528
    },{
        "city": "Barcelona, Catalonia, Spain",
        "lat": 41.385064,
        "lng": 2.173403
    },{
        "city": "Anaheim, California, United States",
        "lat": 33.835293,
        "lng": -117.914504
    },{
        "city": "San Diego, California, United States",
        "lat": 32.715738,
        "lng": -117.161084
    },{
        "city": "Myrtle Beach, South Carolina, United States",
        "lat": 33.689060,
        "lng": -78.886694
    },{
        "city": "Puerto Vallarta, Mexico",
        "lat": 20.653407,
        "lng": -105.225332
    },{
        "city": "Washington DC, District of Columbia, United States",
        "lat": 38.907192,
        "lng": -77.036871
    },{
        "city": "Bahamas, Caribbean",
        "lat": 25.034280,
        "lng": -77.396280
    },{
        "city": "Boston, Massachusetts, United States",
        "lat": 42.360082,
        "lng": -71.058880
    },{
        "city": "Fort Lauderdale, Florida, United States",
        "lat": 26.122439,
        "lng": -80.137317
    },{
        "city": "Dublin, County Dublin, Ireland",
        "lat": 53.349805,
        "lng": -6.260310
    },{
        "city": "Dominican Republic, Caribbean",
        "lat": 18.735693,
        "lng": -70.162651
    },{
        "city": "Aruba, Caribbean",
        "lat": 12.521110,
        "lng": -69.968338
    },{
        "city": "Puerto Rico, Caribbean",
        "lat": 18.220833,
        "lng": -66.590149
    },{
        "city": "Athens, Attica, Greece",
        "lat": 37.983917,
        "lng": 23.729360
    },{
        "city": "St. Maarten-St. Martin, Caribbean",
        "lat": 18.030827,
        "lng": -63.073633
    },{
        "city": "Cayman Islands, Caribbean",
        "lat": 19.313300,
        "lng": -81.254600
    },{
        "city": "Antigua, Caribbean",
        "lat": 28.352640,
        "lng": -80.699051
    },{
        "city": "Munich, Germany",
        "lat": 48.135125,
        "lng": 11.581981
    },{
        "city": "Bermuda, Caribbean",
        "lat": 28.377128,
        "lng": -80.672178
    },{
        "city": "Copenhagen, Denmark",
        "lat": 55.676097,
        "lng": 12.568337
    },{
        "city": "St. Kitts, Caribbean",
        "lat": 27.774940,
        "lng": -82.393768
    },{
        "city": "Zihuatanejo, Mexico",
        "lat": 17.641669,
        "lng": -101.551695
    },{
        "city": "Jamaica, Caribbean",
        "lat": 18.109581,
        "lng": -77.297508
    },{
        "city": "Salzburg, Austria",
        "lat": 47.809490,
        "lng": 13.055010
    },{
        "city": "Los Cabos, Mexico",
        "lat": 22.890533,
        "lng": -109.916737
    },{
        "city": "Canary Islands, Spain",
        "lat": 28.291564,
        "lng": -16.629130
    },{
        "city": "U.S. Virgin Islands, Caribbean",
        "lat": 18.335765,
        "lng": -64.896335
    },{
        "city": "Maui, Hawaii, United States",
        "lat": 20.798363,
        "lng": -156.331925
    },{
        "city": "Virginia Beach, Virginia, United States",
        "lat": 36.852926,
        "lng": -75.977985
    },{
        "city": "Nashville, Tennessee, United States",
        "lat": 36.162664,
        "lng": -86.781602
    }
]